Partner_name,Program name,Country,lat,long,Link




FORM International (Ghana),Asubima Forest Reserve,Ghana,"7.413533","-1.8874",http://www.formghana.com




FORM International (Ghana),Afrensu Brohuma Forest Reserve,Ghana,"7.36667","-1.88333",http://www.formghana.com




FORM International (Ghana),Tain Tributaries,Ghana,"7.41667","-2.23333",http://www.formghana.com




FORM International (Ghana),Akumadan Plantation (comprised of Asubima and Afrensu),Ghana,"7.3996638","-1.9621754",http://www.formghana.com




FORM International (Tanzania),Kwamdulu Estate,Tanzania,"-5.184657","38.1579673",https://www.forminternational.nl/sfi-tanzania/




FORM International (Tanzania),Kwaraguru Estate,Tanzania,"-5.4782667","38.5277446",https://www.forminternational.nl/sfi-tanzania/




FORM / Unilever, Juaso,test,"6.60000","-1.133333",https://www.forminternational.nl/allanblackia-rd/




Gouritz,Gouritz Cluster Biosphere Reserve,test,"-33.765574","21.707946",https://gouritz.com